City_ID,City,Lat,Lng,Max Temp,Humidity,Cloudiness,Wind Speed,Country,Date
0,lebu,-37.6167,-73.65,6.39,77,72,4.88,CL,1720091050
1,taksimo,56.3444,114.8794,23.68,68,94,1.88,RU,1720091460
2,port mathurin,-19.6833,63.4167,22.28,67,29,9.89,MU,1720090946
3,darzab,35.9774,65.3783,34.19,11,39,4.46,AF,1720091463
4,bodden town,19.2833,-81.25,25.0,96,75,19.55,KY,1720091464
5,north platte,41.1239,-100.7654,15.06,92,75,3.6,US,1720091309
6,port-aux-francais,-49.35,70.2167,1.18,57,34,3.28,TF,1720091190
7,carnarvon,-24.8667,113.6333,19.07,38,0,6.42,AU,1720091469
8,waitangi,-43.9535,-176.5597,9.99,77,100,6.72,NZ,1720091174
9,saudarkrokur,65.7461,-19.6394,7.56,93,99,5.37,IS,1720091474
10,bilibino,68.0546,166.4372,18.15,53,91,1.96,RU,1720091475
11,anadyr,64.75,177.4833,7.28,100,75,10.0,RU,1720091200
12,tiksi,71.6872,128.8694,2.43,92,94,4.04,RU,1720091478
13,pampa,35.5362,-100.9599,23.02,73,0,5.14,US,1720091480
14,solone,48.2081,34.8721,35.38,20,100,5.9,UA,1720091481
15,hawaiian paradise park,19.5933,-154.9731,21.73,95,100,2.57,US,1720091488
16,adamstown,-25.066,-130.1015,20.42,67,100,3.32,PN,1720091491
17,thompson,55.7435,-97.8558,10.65,73,73,2.17,CA,1720091492
18,tsiombe,-25.3,45.4833,26.73,30,15,5.4,MG,1720091494
19,jamestown,42.097,-79.2353,22.79,98,100,2.06,US,1720091495
20,sand springs,36.1398,-96.1089,28.18,75,0,0.0,US,1720091497
21,aasiaat,68.7098,-52.8699,2.86,79,3,4.5,GL,1720090989
22,bethel,41.3712,-73.414,20.83,84,56,0.45,US,1720091295
23,puerto ayora,-0.7393,-90.3518,21.42,97,98,1.88,EC,1720091501
24,udachny,66.4167,112.4,18.12,31,42,4.76,RU,1720091034
25,baymak,52.5933,58.3225,27.72,50,11,1.84,RU,1720091505
26,sokhumi,43.0033,41.0153,31.95,40,40,1.17,GE,1720091506
27,constantia,44.1833,28.65,28.38,43,69,2.28,RO,1720091450
28,invercargill,-46.4,168.35,5.01,94,100,3.13,NZ,1720091301
29,tura,25.5198,90.2201,25.97,90,100,3.16,IN,1720091511
30,blackmans bay,-43.0167,147.3167,3.62,88,5,0.45,AU,1720091512
31,swakopmund,-22.6833,14.5333,16.79,60,0,3.31,NA,1720091515
32,banda aceh,5.5577,95.3222,28.56,75,100,3.72,ID,1720091516
33,salamanca,40.8333,-6.0,29.44,28,19,3.11,ES,1720091518
34,cidreira,-30.1811,-50.2056,12.35,94,100,2.36,BR,1720091519
35,grytviken,-54.2811,-36.5092,-5.09,59,5,0.81,GS,1720091521
36,bonanza,14.0289,-84.591,21.48,99,94,1.07,NI,1720091523
37,georgetown,5.4112,100.3354,28.96,70,20,1.54,MY,1720091521
38,vorgashor,67.5833,63.95,23.15,68,86,8.04,RU,1720091526
39,iskateley,67.6803,53.1512,14.75,87,66,10.56,RU,1720091161
40,longyearbyen,78.2186,15.6401,9.91,53,40,6.17,SJ,1720091529
41,klyuchi,52.2667,79.1667,25.22,46,99,3.35,RU,1720091530
42,kuqa,41.7278,82.9364,32.81,15,99,3.05,CN,1720091532
43,panzos,15.4,-89.6667,20.8,98,29,1.27,GT,1720091406
44,chuhar jamali,24.3895,67.9923,35.2,52,84,7.5,PK,1720091271
45,sitka,57.0531,-135.33,12.94,76,100,4.12,US,1720091536
46,nosy varika,-20.5833,48.5333,23.83,67,23,4.08,MG,1720091538
47,shalqar,47.8333,59.6,30.86,26,0,6.3,KZ,1720091539
48,saipan,15.1355,145.701,29.39,74,40,4.63,MP,1720091542
49,jerantut,3.936,102.3626,27.62,82,86,0.26,MY,1720091387
50,sherpur,25.0188,90.0175,28.08,88,99,5.34,BD,1720091301
51,hai duong,20.9333,106.3167,30.0,75,96,5.32,VN,1720091515
52,ushuaia,-54.8,-68.3,1.81,87,100,2.06,AR,1720091548
53,lompoc,34.6391,-120.4579,11.23,100,100,2.57,US,1720091550
54,olonkinbyen,70.9221,-8.7187,3.63,95,97,7.04,SJ,1720091551
55,fort bragg,35.139,-79.006,24.55,91,100,0.89,US,1720091553
56,tazovsky,67.4667,78.7,17.17,72,98,0.43,RU,1720091554
57,sarpol-e zahab,34.4611,45.8626,39.38,10,0,4.92,IR,1720091401
58,iqaluit,63.7506,-68.5145,3.72,93,100,2.68,CA,1720091009
59,jabor,5.921,169.6434,28.41,70,100,5.7,MH,1720091559
60,moranbah,-22.0016,148.0466,16.14,79,97,8.96,AU,1720090909
61,fairhope,30.523,-87.9033,26.68,95,0,0.45,US,1720091333
62,ban lam luk ka,13.9774,100.7778,28.99,84,20,1.54,TH,1720091565
63,barcelos,41.5388,-8.6151,32.18,36,9,1.13,PT,1720091566
64,mount gambier,-37.8333,140.7667,7.52,94,1,2.77,AU,1720091466
65,nova vicosa,-17.8919,-39.3719,23.23,69,0,2.08,BR,1720091352
66,montlucon,46.3333,2.6,22.06,79,90,1.79,FR,1720091570
67,eldorado at santa fe,35.5264,-105.9347,17.2,45,0,2.08,US,1720091572
68,puerto natales,-51.7236,-72.4875,1.81,74,88,4.67,CL,1720091573
69,praia da vitoria,38.7333,-27.0667,22.64,69,6,2.69,PT,1720091575
70,prado,-17.3411,-39.2208,23.43,68,2,1.02,BR,1720091330
71,vila velha,-20.3297,-40.2925,20.97,83,20,1.03,BR,1720091578
72,badger,64.8,-147.5333,14.14,81,100,4.77,US,1720091580
73,delmar,42.622,-73.8326,22.12,71,40,4.12,US,1720091581
74,albany,42.6001,-73.9662,21.4,72,88,1.46,US,1720091583
75,itoman,26.1247,127.6694,30.22,77,40,3.6,JP,1720091509
76,stanley,54.868,-1.6985,15.66,59,40,12.35,GB,1720091586
77,avarua,-21.2078,-159.775,24.03,83,75,6.69,CK,1720091587
78,kangding,30.0513,101.9603,18.32,97,100,1.71,CN,1720091589
79,kamien pomorski,53.9685,14.7726,18.2,61,81,8.03,PL,1720091593
80,oranjemund,-28.55,16.4333,17.48,57,5,5.07,NA,1720091595
81,kavieng,-2.5744,150.7967,27.84,79,100,4.79,PG,1720091596
82,muktsar,30.4833,74.5167,40.65,35,64,3.02,IN,1720091320
83,zaozersk,69.4005,32.4476,9.48,76,100,2.27,RU,1720091606
84,felege neway,6.3,36.8833,27.14,59,64,1.09,ET,1720091608
85,natchitoches,31.7668,-93.1335,25.47,100,0,0.0,US,1720091610
86,shumikha,55.2261,63.2961,28.14,62,6,4.25,RU,1720091611
87,ribeira grande,38.5167,-28.7,23.22,60,40,4.02,PT,1720091461
88,pesqueira,-8.3578,-36.6964,21.21,67,72,6.3,BR,1720091614
89,igunga,-4.2833,33.8833,30.62,30,90,1.3,TZ,1720091616
90,tralee,52.2704,-9.7026,14.14,82,100,6.69,IE,1720091617
91,wattegama,6.7989,81.4808,32.14,52,87,4.92,LK,1720091352
92,bredasdorp,-34.5322,20.0403,16.13,55,4,4.36,ZA,1720091340
93,lazaro cardenas,17.9583,-102.2,24.41,87,26,2.18,MX,1720091622
94,visakhapatnam,17.69,83.2093,32.94,70,75,5.66,IN,1720091485
95,karratha,-20.7377,116.8463,19.8,24,0,5.81,AU,1720091625
96,fortuna,40.5982,-124.1573,10.51,100,0,0.0,US,1720091626
97,pisco,-13.7,-76.2167,15.03,100,100,1.54,PE,1720091628
98,kununurra,-15.7667,128.7333,19.99,40,53,2.06,AU,1720091629
99,porto franco,-6.3383,-47.3992,25.45,46,3,1.97,BR,1720091631
100,punta arenas,-53.15,-70.9167,4.06,70,100,5.66,CL,1720091527
101,college,64.8569,-147.8028,14.18,80,99,1.79,US,1720091633
102,mokhsogollokh,61.4681,128.9203,16.63,47,61,3.13,RU,1720091635
103,kavalerovo,44.2661,135.0572,22.27,78,31,3.08,RU,1720091637
104,akureyri,65.6835,-18.0878,6.96,93,100,4.12,IS,1720091522
105,chonchi,-42.6128,-73.8092,0.62,90,34,1.66,CL,1720091640
106,lihue,21.9789,-159.3672,23.77,86,75,8.23,US,1720091642
107,papatowai,-46.5619,169.4708,6.6,89,100,4.14,NZ,1720091643
108,ust-nera,64.5667,143.2,14.12,91,92,1.6,RU,1720091645
109,yellowknife,62.456,-114.3525,16.34,90,100,3.6,CA,1720091647
110,port elizabeth,-33.918,25.5701,19.5,66,31,3.58,ZA,1720091054
111,alice springs,-23.7,133.8833,4.75,75,4,3.09,AU,1720091550
112,kodiak,57.79,-152.4072,5.73,93,0,3.09,US,1720091651
113,enewetak,11.3474,162.3373,28.28,79,86,6.71,MH,1720091645
114,las khorey,11.1595,48.1967,36.56,44,36,1.64,SO,1720091655
115,atafu village,-8.5421,-172.5159,28.54,78,48,10.21,TK,1720091657
116,haiku-pauwela,20.9219,-156.3051,23.47,80,20,7.15,US,1720091658
117,san jose de jachal,-30.2406,-68.7469,2.25,59,8,0.6,AR,1720091400
118,tabou,4.423,-7.3528,26.35,69,71,3.43,CI,1720091661
119,choibalsan,48.0667,114.5,23.89,55,100,2.07,MN,1720091663
120,opuwo,-18.0607,13.84,27.89,10,3,3.6,NA,1720091665
121,inongo,-1.95,18.2667,27.13,54,88,2.53,CD,1720091479
122,petropavlovsk-kamchatsky,53.0452,158.6483,8.33,100,100,2.0,RU,1720091669
123,chitipa,-9.7024,33.2697,26.95,33,19,3.07,MW,1720091670
124,barra de santo antonio,-9.4047,-35.5072,25.6,75,34,3.17,BR,1720091672
125,port saint john's,-31.6229,29.5448,21.22,33,4,7.63,ZA,1720091675
126,uturoa,-16.7333,-151.4333,26.25,77,7,9.82,PF,1720091133
127,kapa'a,22.0752,-159.319,24.18,86,75,8.23,US,1720091676
128,ilulissat,69.2167,-51.1,10.01,46,20,6.17,GL,1720091679
129,srednyaya yelyuzan',53.0241,45.9529,32.77,35,86,4.08,RU,1720091681
130,newman,37.3138,-121.0208,25.01,32,0,1.56,US,1720091682
131,dwarka,22.2394,68.9678,30.46,75,100,8.22,IN,1720091019
132,naze,28.3667,129.4833,26.62,84,35,2.25,JP,1720091685
133,hermanus,-34.4187,19.2345,17.67,64,3,7.67,ZA,1720091687
134,isafjordur,66.0755,-23.124,7.02,76,100,6.17,IS,1720091688
135,mirnyy,62.5353,113.9611,19.6,52,88,1.55,RU,1720091690
136,luganville,-15.5333,167.1667,24.01,77,6,3.31,VU,1720091691
137,lospalos,-8.5186,127.0025,20.66,78,27,4.29,TL,1720091693
138,sirte,31.2089,16.5887,27.03,59,0,6.6,LY,1720091694
139,cururupu,-1.8283,-44.8683,25.84,88,98,1.43,BR,1720091696
140,talnakh,69.4865,88.3972,15.4,59,100,3.2,RU,1720091574
141,livno,43.8269,17.0078,22.64,53,24,2.88,BA,1720091698
142,lamu,-2.2717,40.902,27.15,66,70,5.85,KE,1720091700
143,lesnoy,57.6198,63.0784,30.32,54,22,3.23,RU,1720091672
144,hadibu,12.65,54.0333,29.51,61,100,11.67,YE,1720091643
145,simpang,-1.2667,104.0833,27.52,81,46,1.81,ID,1720091122
146,ippy,6.2679,21.2247,28.45,60,100,2.25,CF,1720091709
147,artigas,-30.4,-56.4667,10.01,91,100,4.43,UY,1720091712
148,margaret river,-33.95,115.0667,12.52,74,29,3.84,AU,1720091715
149,eastham,41.8301,-69.9739,21.66,93,96,4.52,US,1720091718
150,howard springs,-12.497,131.047,23.95,33,1,1.05,AU,1720091725
151,dryden,49.7833,-92.7503,14.16,100,100,1.54,CA,1720091649
152,ancud,-41.8697,-73.8203,3.43,71,55,2.16,CL,1720091525
153,prince rupert,54.3161,-130.3201,11.83,95,100,3.09,CA,1720091729
154,at taj,24.2049,23.2857,40.35,12,23,3.64,LY,1720091447
155,coahuayana de hidalgo,18.7,-103.6583,23.38,88,100,1.85,MX,1720091732
156,nemuro,43.3236,145.575,13.66,99,61,2.65,JP,1720091449
157,bemidji,47.4736,-94.8803,13.09,100,0,0.0,US,1720091735
158,ugoofaaru,5.6667,73.0,29.55,71,94,2.91,MV,1720091737
159,fortaleza,-3.7227,-38.5247,26.23,73,75,4.63,BR,1720091738
160,weno,7.4515,151.8468,25.97,94,100,1.54,FM,1720091740
161,la gi,10.6667,107.7833,27.72,80,97,3.59,VN,1720091741
162,rokytne,51.2796,27.214,19.28,81,100,2.72,UA,1720091743
163,sisimiut,66.9395,-53.6735,8.25,59,1,2.53,GL,1720091744
164,paciran,-6.8767,112.3761,26.56,84,100,4.94,ID,1720091745
165,klaksvik,62.2266,-6.589,11.51,82,100,3.92,FO,1720091747
166,arish,31.1316,33.7984,32.22,39,0,5.14,EG,1720091748
167,melfort,52.8667,-104.6177,13.07,88,100,0.0,CA,1720091751
168,businga,3.3333,20.8833,30.9,52,90,1.22,CD,1720091752
169,nuku'alofa,-21.1333,-175.2,24.24,84,6,6.22,TO,1720091627
170,susuman,62.7833,148.1667,16.69,59,49,1.29,RU,1720091755
171,holbrook,40.8123,-73.0784,21.95,84,75,4.12,US,1720091757
172,igarka,67.4667,86.5833,21.59,45,89,3.62,RU,1720091758
173,ascension,30.2169,-90.9001,27.27,94,40,0.0,US,1720091760
174,fisterra,42.9049,-9.2629,27.95,75,34,8.77,ES,1720091761
175,bamboo flat,11.7,92.7167,25.63,91,100,8.98,IN,1720091763
176,ujae,8.9322,165.7642,27.92,79,97,6.25,MH,1720091764
177,bereeda,11.8704,51.0579,34.93,47,74,4.24,SO,1720091766
178,stary sacz,49.5636,20.635,23.79,47,21,0.57,PL,1720091767
179,sinabang,2.4803,96.3801,29.12,69,61,1.15,ID,1720091750
180,bayanhongor,46.7167,100.1167,14.57,67,100,2.58,MN,1720091770
181,sosnovyy bor,59.9,29.1167,17.86,80,99,0.56,RU,1720091772
182,luderitz,-26.6481,15.1594,20.04,46,20,6.95,NA,1720091773
183,hobyo,5.3505,48.5268,28.46,63,80,13.44,SO,1720091775
184,ormara,25.2088,64.6357,29.42,79,86,4.85,PK,1720091776
185,dunda,-8.1167,34.25,30.66,28,22,1.64,TZ,1720091779
186,saint-yrieix-sur-charente,45.6833,0.1167,19.86,72,100,5.14,FR,1720091785
187,raja,8.4596,25.678,35.25,34,93,2.27,SS,1720091787
188,vila do maio,15.1333,-23.2167,28.44,86,84,3.26,CV,1720091549
189,komarichi,52.4151,34.7905,30.5,43,99,5.52,RU,1720091790
190,mount pearl,47.5166,-52.7813,15.19,89,75,4.63,CA,1720091791
191,gubkinskiy,64.434,76.5026,26.96,40,64,3.89,RU,1720091793
192,qaqortoq,60.7167,-46.0333,2.12,91,14,3.41,GL,1720091796
193,hithadhoo,-0.6,73.0833,29.25,73,100,3.94,MV,1720091797
194,west island,-12.1568,96.8225,28.99,79,40,4.63,CC,1720091799
195,boguchany,58.3814,97.4531,25.43,68,100,1.49,RU,1720091800
196,tchintabaraden,15.8969,5.7985,34.6,36,70,5.22,NE,1720091606
197,al qaryatayn,34.2296,37.2407,36.44,14,0,1.27,SY,1720091803
198,sur,22.5667,59.5289,35.54,54,79,3.53,OM,1720091805
199,bam,29.106,58.357,44.33,9,32,4.23,IR,1720091806
200,gadzhiyevo,69.2551,33.3362,9.08,77,100,2.32,RU,1720091808
201,edinburgh of the seven seas,-37.0676,-12.3116,15.06,81,34,18.12,SH,1720091809
202,port alfred,-33.5906,26.891,18.99,52,14,4.92,ZA,1720091811
203,constitucion,-35.3333,-72.4167,6.67,69,89,5.75,CL,1720091813
204,santa cruz,-17.8,-63.1667,21.03,88,20,5.14,BO,1720091816
205,utrik,11.2278,169.8474,27.77,81,78,6.8,MH,1720091817
206,daru,-9.0763,143.2092,24.94,89,98,7.76,PG,1720091819
207,kingston,17.997,-76.7936,28.53,79,20,7.2,JM,1720091704
208,kittila,67.6647,24.8936,17.56,59,75,2.57,FI,1720091822
209,paraty,-23.2178,-44.7131,24.09,54,1,2.07,BR,1720091824
210,makushino,55.2103,67.2442,25.55,57,7,2.76,RU,1720091825
211,labuan bajo,-8.4964,119.8877,24.64,78,0,2.2,ID,1720091827
212,hasaki,35.7333,140.8333,27.38,85,3,4.38,JP,1720091680
213,keflavik,64.0049,-22.5624,11.95,81,75,5.66,IS,1720091830
214,crane,31.3974,-102.3501,25.91,60,13,6.42,US,1720091596
215,narimanov,46.6927,47.8498,32.95,14,82,7.09,RU,1720091833
216,cabo san lucas,22.8909,-109.9124,25.9,34,15,1.22,MX,1720091594
217,touros,-5.1989,-35.4608,26.55,76,26,6.09,BR,1720091653
218,wailua homesteads,22.0669,-159.378,23.44,88,75,8.23,US,1720091837
219,gaspe,48.8334,-64.4819,21.12,52,75,3.09,CA,1720091838
220,along,28.1667,94.7667,24.22,100,100,0.93,IN,1720091840
221,port sudan,19.6175,37.2164,35.92,42,14,6.4,SD,1720091841
222,vila franca do campo,37.7167,-25.4333,21.23,64,39,1.32,PT,1720091843
223,san patricio,28.017,-97.5169,28.24,89,5,2.83,US,1720091844
224,yeraliyev,43.2,51.65,34.52,23,65,5.24,KZ,1720091846
225,lucapa,-8.4192,20.7447,32.02,15,13,2.88,AO,1720091847
226,whitehorse,60.7161,-135.0538,11.56,71,75,3.6,CA,1720091849
227,siwa oasis,29.2041,25.5195,37.61,22,0,5.01,EG,1720091850
228,malindi,-3.2175,40.1191,27.44,64,67,7.29,KE,1720091852
229,dudinka,69.4058,86.1778,17.97,62,95,2.43,RU,1720091854
230,dakhla,23.6848,-15.958,22.01,73,75,12.86,EH,1720091855
231,carutapera,-1.195,-46.02,26.06,87,98,2.65,BR,1720091857
232,meulaboh,4.1363,96.1285,27.22,81,91,2.43,ID,1720091858
233,kerikeri,-35.2268,173.9474,6.06,91,9,0.89,NZ,1720091859
234,champerico,14.3,-91.9167,24.42,84,19,2.88,GT,1720091861
235,lata,40.1629,-8.3327,32.49,41,3,0.48,PT,1720091863
236,ghanzi,-21.5667,21.7833,24.04,15,0,3.7,BW,1720091864
237,lerwick,60.1545,-1.1494,12.0,78,100,5.34,GB,1720091866
238,vilyuchinsk,52.9306,158.4028,9.15,95,100,0.98,RU,1720091682
239,capitan bado,-23.2667,-55.5333,18.25,48,0,3.48,PY,1720091869
240,fort valley,32.5538,-83.8874,24.38,96,100,2.06,US,1720091871
241,chernyshevskiy,63.0128,112.4714,20.4,49,93,0.7,RU,1720091872
242,banikoara,11.2985,2.4386,26.32,68,81,3.82,BJ,1720091644
243,kone,-21.0595,164.8658,20.2,87,27,3.64,NC,1720091875
244,sosnogorsk,63.6023,53.8817,26.43,36,9,6.29,RU,1720091876
245,sidi khaled,34.387,4.9879,34.33,15,0,3.43,DZ,1720091878
246,ozark,37.0209,-93.206,24.79,94,84,0.45,US,1720091880
247,mount pleasant,32.7941,-79.8626,24.99,97,40,0.0,US,1720091881
248,miasskoye,55.2784,61.8905,28.49,58,16,2.72,RU,1720091883
249,sarina,-21.4333,149.2167,19.04,1,61,7.01,AU,1720091884
250,loikaw,19.6742,97.2094,24.94,87,95,1.28,MM,1720091886
251,st. john's,47.5649,-52.7093,15.66,88,75,4.63,CA,1720091887
252,cockburn town,21.4612,-71.1419,28.02,82,70,6.52,TC,1720091889
253,kamennomostskoye,43.7372,43.0514,25.95,61,1,2.3,RU,1720091890
254,galle,6.0367,80.217,28.43,75,88,5.03,LK,1720091819
255,saint-philippe,-21.3585,55.7679,24.77,78,71,6.49,RE,1720091893
256,mount isa,-20.7333,139.5,17.87,52,40,3.09,AU,1720091895
257,al bardiyah,31.7561,25.0865,30.16,47,0,2.83,LY,1720091896
258,jiuquan,39.7432,98.5174,28.07,24,62,1.85,CN,1720091898
259,almaty,43.25,76.95,31.95,19,40,4.0,KZ,1720091797
260,misratah,32.3754,15.0925,26.95,56,0,7.9,LY,1720091784
261,gisborne,-38.6533,178.0042,9.01,83,74,1.62,NZ,1720091363
262,labasa,-16.4167,179.3833,24.19,93,25,2.88,FJ,1720091903
263,shengli,37.4564,118.4856,25.14,72,46,3.87,CN,1720091852
264,midvagur,62.0511,-7.1939,11.46,82,75,6.17,FO,1720091907
265,zacatepec,18.65,-99.2,22.46,97,57,0.31,MX,1720091909
266,posto fiscal rolim de moura,-13.0833,-62.2667,19.37,68,0,0.38,BR,1720091910
267,nouadhibou,20.931,-17.0347,22.99,73,1,7.72,MR,1720091912
268,coquimbo,-29.9533,-71.3436,10.85,100,100,1.54,CL,1720091916
269,itupiranga,-5.1347,-49.3267,25.18,62,1,0.93,BR,1720091917
270,hamilton,39.1834,-84.5333,24.03,97,75,2.06,US,1720091883
271,port lincoln,-34.7333,135.8667,12.3,70,77,8.83,AU,1720091920
272,antofagasta,-23.65,-70.4,13.6,72,12,1.19,CL,1720091922
273,dickson,36.077,-87.3878,25.64,92,0,3.09,US,1720091923
274,kenai,60.5544,-151.2583,11.03,86,0,4.12,US,1720091925
275,sogndal,61.2283,7.1003,16.21,62,100,2.57,NO,1720091926
276,berezovo,63.9381,65.0419,30.91,40,15,5.86,RU,1720091928
277,mahibadhoo,3.7833,72.9667,28.9,73,100,3.23,MV,1720091929
278,chimore,-16.9833,-65.1333,19.38,88,36,0.35,BO,1720091931
279,montepuez,-13.1256,38.9997,31.28,29,54,1.19,MZ,1720091933
280,boke,10.9409,-14.2967,27.78,77,100,2.68,GN,1720091935
281,guajara mirim,-10.7828,-65.3394,19.53,70,1,0.57,BR,1720091936
282,palikir - national government center,6.9248,158.1611,25.41,94,75,1.03,FM,1720091752
283,mil'kovo,55.6078,37.7956,33.13,40,5,3.65,RU,1720091942
284,geraldton,-28.7667,114.6,11.23,76,0,4.12,AU,1720091940
285,kupang,-10.1667,123.5833,28.32,78,20,5.14,ID,1720091945
286,bac lieu,9.285,105.7244,28.45,75,92,3.12,VN,1720091946
287,casilda,-33.0442,-61.1681,4.7,53,100,2.06,AR,1720091948
288,nieuw amsterdam,5.8833,-55.0833,25.09,88,21,3.19,SR,1720091949
289,inari,68.906,27.0288,17.11,64,97,1.12,FI,1720091951
290,east end,34.5507,-92.341,27.84,93,2,2.18,US,1720091952
291,kletskaya,49.3145,43.0584,34.14,23,96,2.41,RU,1720091954
292,goundam,16.4145,-3.6708,33.14,45,24,5.08,ML,1720091957
293,puerto baquerizo moreno,-0.9,-89.6,20.47,89,80,2.78,EC,1720091891
294,queenstown,-31.8976,26.8753,12.11,37,4,8.35,ZA,1720091960
295,neryungri,56.6709,124.6491,20.87,78,98,1.53,RU,1720091966
296,harsin,34.2721,47.5861,34.45,9,0,2.27,IR,1720091968
297,namibe,-15.1961,12.1522,24.95,48,5,3.61,AO,1720091969
298,dobrinka,52.1653,40.4731,29.34,52,98,2.31,RU,1720091971
299,paradip garh,20.3167,86.6167,31.72,67,98,8.11,IN,1720091944
300,yeed,4.55,43.0333,33.83,29,38,8.78,SO,1720091974
301,christchurch,-43.5333,172.6333,2.19,89,55,0.59,NZ,1720091578
302,las heras,-46.5419,-68.9359,-1.2,61,2,7.12,AR,1720091977
303,levuka,50.1834,-105.4011,13.85,94,100,5.66,CA,1720091978
304,americus,32.0724,-84.2327,24.07,100,100,0.0,US,1720091980
305,aripuana,-9.1667,-60.6333,22.82,75,16,0.41,BR,1720091981
306,farah,32.5,62.5,44.53,7,0,2.77,AF,1720091983
307,san rafael,-34.6177,-68.3301,5.24,45,100,6.62,AR,1720091984
308,portland,45.5234,-122.6762,15.37,88,0,1.34,US,1720091986
309,east london,-33.0153,27.9116,19.52,39,0,10.8,ZA,1720091987
310,rongelap,11.1635,166.8941,27.94,82,99,6.75,MH,1720091989
311,acapulco de juarez,16.8634,-99.8901,26.9,89,75,1.54,MX,1720091880
312,buala,-8.145,159.5921,27.37,78,100,4.7,SB,1720091992
313,traralgon,-38.1833,146.5333,7.6,97,77,1.24,AU,1720091900
314,tambacounda,13.7539,-13.7586,31.03,66,75,6.17,SN,1720091995
315,holualoa,19.6228,-155.9522,21.59,84,40,0.77,US,1720091503
316,trapani,37.8333,12.6667,27.05,65,40,6.69,IT,1720091902
317,manaure,11.7751,-72.4445,26.85,81,93,2.36,CO,1720092001
318,salina cruz,16.1667,-95.2,25.27,87,32,3.05,MX,1720092003
319,thinadhoo,0.5333,72.9333,29.19,73,100,3.92,MV,1720092004
320,bogale,16.2833,95.4,26.46,88,100,3.65,MM,1720092007
321,merizo village,13.2658,144.6691,28.31,90,35,4.85,GU,1720092008
322,nar'yan-mar,67.6713,53.087,14.79,87,65,10.53,RU,1720092010
323,sao miguel do araguaia,-13.275,-50.1628,22.62,49,0,2.08,BR,1720092012
324,yashkul',46.1711,45.3435,37.46,14,8,8.52,RU,1720091732
325,gornopravdinsk,60.05,69.9,30.07,46,61,1.78,RU,1720092015
326,amalapuram,16.5833,82.0167,31.72,64,98,2.58,IN,1720092016
327,khawr fakkan,25.3313,56.342,37.03,37,4,2.33,AE,1720092018
328,afaahiti,-17.75,-149.2833,22.93,77,67,9.18,PF,1720091969
329,fale old settlement,-9.3852,-171.2468,28.57,78,18,10.61,TK,1720092022
330,korla,41.7597,86.1469,33.28,15,100,6.17,CN,1720092024
331,terrace,54.5163,-128.6035,10.95,87,20,0.0,CA,1720092026
332,chui,-33.6971,-53.4616,5.08,91,100,1.72,UY,1720092028
333,zaqatala,41.6336,46.6433,30.26,37,3,2.06,AZ,1720092029
334,bodo,67.28,14.405,19.97,61,0,4.12,NO,1720092030
335,tres isletas,-26.3407,-60.4321,14.72,95,75,2.09,AR,1720092033
336,colonia,50.9333,6.95,19.22,78,20,2.06,DE,1720092035
337,gustavsberg,59.3268,18.3898,18.99,65,88,7.19,SE,1720092036
338,abepura,-2.6333,140.5833,25.45,94,20,1.03,ID,1720091989
339,vernon,50.2581,-119.2691,14.13,69,27,4.12,CA,1720092039
340,kavaratti,10.5669,72.642,28.41,84,100,7.14,IN,1720092041
341,haqqulobod,40.9167,72.1167,35.29,9,36,5.81,UZ,1720092042
342,sumbawa besar,-8.5,117.4333,24.34,71,20,3.75,ID,1720092044
343,coishco,-9.0231,-78.6156,17.36,89,87,1.72,PE,1720092046
344,ozimek,50.6794,18.2137,16.53,87,100,1.15,PL,1720092047
345,oriximina,-1.7656,-55.8661,24.57,80,86,0.75,BR,1720092049
346,alesund,62.4723,6.1549,18.51,67,0,3.09,NO,1720091845
347,harstad,68.799,16.5293,17.11,81,82,2.68,NO,1720092052
348,zalingei,12.9096,23.4741,30.59,43,80,4.86,SD,1720092053
349,laem sing,12.4816,102.0738,27.19,82,100,1.89,TH,1720092055
350,white center,47.5173,-122.3549,13.44,90,0,0.45,US,1720092056
351,mohr,54.3528,9.7167,16.68,63,60,5.36,DE,1720092058
352,laranjeiras do sul,-25.4078,-52.4161,13.7,69,23,1.66,BR,1720092061
353,vicosa,-20.7539,-42.8819,17.65,72,0,1.36,BR,1720092063
354,coronel dorrego,-38.7187,-61.2873,4.42,42,2,9.08,AR,1720092064
355,smithers,54.7804,-127.1743,7.18,81,0,0.0,CA,1720092066
356,kristiansund,63.1115,7.732,20.36,42,0,4.63,NO,1720092067
357,parnu,58.3859,24.4971,18.05,68,75,4.63,EE,1720092069
358,dossor,47.5272,52.9811,37.05,17,76,1.86,KZ,1720092070
359,kharhial,20.2833,82.7667,26.79,85,100,1.32,IN,1720092071
360,farasan,16.7022,42.1183,32.81,64,10,10.41,SA,1720092073
361,deqen,29.9618,90.7188,16.29,63,96,3.28,CN,1720092074
362,arraial do cabo,-22.9661,-42.0278,21.92,83,0,2.06,BR,1720092076
363,vilyuysk,63.7553,121.6247,15.11,56,23,4.13,RU,1720092083
364,remire-montjoly,4.9167,-52.2667,25.02,94,75,1.03,GF,1720091793
365,greymouth,-42.4667,171.2,2.87,87,13,2.26,NZ,1720092003
366,alo,7.4178,6.7371,29.0,70,95,2.48,NG,1720092092
367,limon,10.0,-83.0333,23.36,95,100,4.55,CR,1720092093
368,ponta delgada,37.7333,-25.6667,21.4,68,40,4.12,PT,1720092097
369,rio pomba,-21.2747,-43.1792,18.68,69,0,1.24,BR,1720092098
370,dul'durga,50.6761,113.5931,28.29,39,100,2.62,RU,1720092100
371,walvis bay,-22.9575,14.5053,21.53,37,0,3.6,NA,1720092102
372,sassandra,4.95,-6.0833,27.47,67,35,3.63,CI,1720092104
373,tolanaro,-25.0319,46.9987,27.04,54,20,6.17,MG,1720092105
374,faaborg,55.0951,10.2423,15.0,58,67,10.18,DK,1720092107
375,vel'sk,61.0701,42.0983,25.8,39,67,3.56,RU,1720092108
376,hoemul-li,41.4339,129.67,20.18,82,96,1.28,KP,1720092110
377,dili,-8.5586,125.5736,25.07,71,17,2.32,TL,1720092112
378,aksu,41.1231,80.2644,31.54,21,89,3.91,CN,1720092113
379,general acha,-37.377,-64.6043,2.65,59,0,4.44,AR,1720092115
380,kidal,18.4411,1.4078,35.36,32,91,5.65,ML,1720092117
381,muroto-misakicho,33.2833,134.15,26.6,85,4,2.61,JP,1720092118
382,isangel,-19.55,169.2667,22.42,83,2,2.93,VU,1720092119
383,suva,-18.1416,178.4415,23.71,100,40,1.03,FJ,1720092121
384,burley,42.5357,-113.7928,10.11,76,0,0.0,US,1720092123
385,lodja,-3.4833,23.4333,37.92,14,71,1.58,CD,1720092125
386,santa maria del oro,25.9333,-105.3667,24.43,42,37,2.08,MX,1720092128
387,yoichi,43.2039,140.7703,19.29,93,89,3.66,JP,1720091915
388,port augusta,-32.5,137.7667,12.18,63,78,5.57,AU,1720092131
389,chernomorskoye,45.5039,32.6997,26.06,68,82,5.22,UA,1720092132
390,salekhard,66.53,66.6019,28.95,44,71,6.09,RU,1720092134
391,fuglafjordur,62.244,-6.814,11.26,82,100,3.91,FO,1720092135
392,tsagan aman,47.5639,46.7218,37.29,15,58,6.53,RU,1720092138
393,barcelona,41.3888,2.159,28.5,63,20,4.12,ES,1720091943
394,gandajika,-6.75,23.95,33.79,17,48,2.52,CD,1720092141
395,la ronge,55.1001,-105.2842,12.14,87,40,1.03,CA,1720091947
396,mejit,10.2753,170.8646,27.65,81,100,6.13,MH,1720092144
397,timaru,-44.4,171.25,3.35,77,64,2.26,NZ,1720092064
398,farshut,26.0549,32.1633,40.85,6,4,1.36,EG,1720092146
399,guarapari,-20.6667,-40.4975,22.6,57,0,1.39,BR,1720092148
400,hilo,19.7297,-155.09,22.01,96,100,2.57,US,1720091966
401,porto velho,-8.7619,-63.9039,23.03,88,0,0.0,BR,1720092151
402,zango,13.0515,8.4877,32.47,42,97,4.39,NG,1720092152
403,amagunze,6.3267,7.6539,30.39,66,75,1.54,NG,1720092154
404,zhigalovo,54.8097,105.1578,29.86,47,26,1.01,RU,1720092155
405,noumea,-22.2763,166.4572,23.33,99,92,4.28,NC,1720092005
406,mar del plata,-38.0023,-57.5575,5.05,65,0,2.24,AR,1720092158
407,robel,53.3755,12.6037,15.55,93,96,6.16,DE,1720092160
408,naifaru,5.4444,73.3657,29.5,68,100,2.08,MV,1720092162
409,taltal,-25.4,-70.4833,11.76,80,22,0.75,CL,1720092163
410,penzance,50.1186,-5.5371,17.38,67,20,6.69,GB,1720092121
411,nguru,12.8791,10.4526,34.34,40,89,4.7,NG,1720092166
412,qarauyl,48.9451,79.255,21.78,45,95,4.33,KZ,1720092168
413,al jawf,29.5,38.75,36.93,10,0,3.28,SA,1720092169
414,conception bay south,47.4999,-52.9981,15.53,96,86,2.41,CA,1720092171
415,simanggang,1.2472,111.4528,26.99,83,98,0.51,MY,1720092172
416,kamakhyanagar,20.9333,85.55,29.63,75,99,5.7,IN,1720092174
417,bandar abbas,27.1865,56.2808,39.99,44,1,5.14,IR,1720092175
418,kailua-kona,19.6406,-155.9956,23.49,89,33,0.88,US,1720092150
419,la passe,45.5549,-0.8967,20.13,69,26,5.73,FR,1720092178
420,bandarbeyla,9.4942,50.8122,33.99,44,90,11.35,SO,1720092180
421,oum hadjer,13.2954,19.6966,34.84,37,65,6.44,TD,1720092181
422,la sarre,48.8002,-79.1996,15.77,82,17,5.74,CA,1720092183
423,khandyga,62.6667,135.6,16.33,53,59,3.72,RU,1720092099
424,yamada,39.4667,141.95,21.84,75,72,3.36,JP,1720092186
425,plettenberg bay,-34.0527,23.3716,16.29,54,44,6.69,ZA,1720092187
426,menongue,-14.6585,17.691,28.56,13,2,3.73,AO,1720092189
427,anadia,-9.6844,-36.3042,23.28,79,1,1.59,BR,1720092190
428,port moresby,-9.4431,147.1797,26.68,78,40,5.14,PG,1720092029
429,al manaqil,14.2459,32.9891,37.4,28,15,5.56,SD,1720092193
430,san luis de la loma,17.2706,-100.8939,24.33,87,9,1.54,MX,1720092195
431,duck lake,52.8168,-106.2344,11.59,94,79,2.03,CA,1720092196
432,khartoum,15.5518,32.5324,39.02,25,9,6.52,SD,1720092198
433,flin flon,54.7682,-101.865,12.91,82,40,1.03,CA,1720092199
434,thala,35.5724,8.6703,25.6,27,0,8.57,TN,1720092201
435,belmonte,-15.8631,-38.8828,23.83,69,22,0.7,BR,1720092202
436,fort liberte,19.6678,-71.8397,26.11,83,99,3.32,HT,1720092204
437,namtsy,62.7161,129.6658,15.24,47,18,8.03,RU,1720092205
438,bandar lampung,-5.4254,105.258,25.17,92,86,1.64,ID,1720092116
439,zaragoza,41.6561,-0.8773,28.25,40,0,8.23,ES,1720092208
440,kuanda,56.3161,116.0806,23.95,68,68,1.79,RU,1720092210
441,orlov,58.5395,48.8917,32.53,38,9,3.93,RU,1720092211
442,kurumkan,54.3,110.3,31.0,40,31,2.16,RU,1720092212
443,bambari,5.768,20.6757,30.07,58,100,2.6,CF,1720092216
444,kalmunai,7.4167,81.8167,30.82,67,90,6.29,LK,1720092217
445,beihai,21.4833,109.1,29.57,77,5,3.39,CN,1720092219
446,tambo,-14.8,-73.9167,0.42,57,12,1.05,PE,1720092220
447,mossel bay,-34.1831,22.146,17.96,57,2,6.21,ZA,1720092222
448,yichun,47.7,128.9,23.58,67,97,3.42,CN,1720092223
449,blackwater,-23.5833,148.8833,16.69,73,99,6.04,AU,1720092225
450,umba,66.6871,34.3429,16.49,52,7,2.94,RU,1720092226
451,sinop,41.7711,34.8709,24.24,51,6,4.78,TR,1720092228
452,ouarzazat,30.9189,-6.8934,37.16,4,0,2.57,MA,1720092229
453,gimbi,9.1667,35.8333,21.73,65,75,1.74,ET,1720092231
454,fada,9.5667,8.3,26.74,68,78,2.28,NG,1720092232
455,waddan,29.1614,16.139,33.87,24,0,0.9,LY,1720092234
456,dubno,50.4169,25.7343,15.71,92,100,3.81,UA,1720092235
457,rio verde de mato grosso,-18.9181,-54.8442,19.77,41,0,2.59,BR,1720092237
458,kutna hora,49.9484,15.2682,20.91,47,0,5.66,CZ,1720092238
459,san antonio de pale,-1.4014,5.6325,23.76,82,94,5.5,GQ,1720092240
460,antonina,-25.4286,-48.7119,19.82,84,59,0.35,BR,1720092241
461,paonta sahib,30.45,77.6167,31.87,66,96,1.35,IN,1720092007
462,srisailain,16.0833,78.8667,31.15,51,100,3.82,IN,1720092245
463,goulburn,-34.75,149.7167,7.1,95,100,2.68,AU,1720092246
464,zheleznodorozhnyy,55.7503,38.0042,33.14,28,5,2.86,RU,1720092248
465,troitsko-pechorsk,62.7084,56.1964,26.79,53,46,4.27,RU,1720092249
466,urzhar,47.093,81.6294,24.76,42,90,5.27,KZ,1720092027
467,pandan,14.0453,124.1694,27.18,83,100,3.05,PH,1720092252
468,huilong,31.8111,121.655,29.99,75,5,2.84,CN,1720092249
469,sola,-13.8833,167.55,26.15,75,96,8.08,VU,1720091871
470,skovorodino,53.9833,123.9167,24.54,56,80,2.11,RU,1720092016
471,diego de almagro,-26.3667,-70.05,7.51,70,6,0.59,CL,1720092258
472,chibougamau,49.9168,-74.3659,16.79,94,100,4.12,CA,1720092260
473,acarau,-2.8856,-40.12,26.14,73,77,7.5,BR,1720092261
474,tual,-5.6667,132.75,26.24,85,100,10.2,ID,1720092262
475,thief river falls,48.1191,-96.1812,14.96,88,0,0.0,US,1720092264
476,ust'-kulom,61.6864,53.6902,29.65,42,26,5.05,RU,1720092265
477,vadso,70.0744,29.7487,13.49,76,75,1.54,NO,1720092176
478,carbonear,47.7332,-53.2148,15.91,95,99,1.2,CA,1720092268
479,nadi,-17.8,177.4167,24.0,83,40,0.0,FJ,1720092270
480,colombo,6.9319,79.8478,28.46,75,78,5.13,LK,1720091673
481,khovd,48.0056,91.6419,23.17,23,47,2.55,MN,1720092273
482,hotan,37.0997,79.9269,37.38,11,0,3.33,CN,1720092275
483,bangassou,4.7413,22.8184,31.81,49,92,2.18,CF,1720092276
484,gemena,3.25,19.7667,31.22,51,90,1.57,CD,1720092278
485,mananjary,-21.2167,48.3333,24.15,66,8,4.16,MG,1720092279
486,askale,39.9208,40.695,28.64,26,10,2.59,TR,1720092281
487,gumdag,39.2061,54.5906,38.04,17,0,1.35,TM,1720092283
488,manga,11.6636,-1.0731,23.89,87,99,4.8,BF,1720092284
489,atar,20.5169,-13.0499,39.96,9,4,10.25,MR,1720092286
490,kuhmo,64.1333,29.5167,21.43,47,45,5.04,FI,1720092287
491,pizarro,4.9533,-77.366,24.24,93,100,2.14,CO,1720092289
492,ondjiva,-17.0667,15.7333,28.62,14,5,2.7,AO,1720092290
493,kaliua,-5.0606,31.7936,31.53,27,92,2.18,TZ,1720092011
494,oltinko'l,40.8011,72.1634,39.11,10,57,5.84,UZ,1720092293
495,westport,41.1415,-73.3579,22.11,80,40,4.12,US,1720092294
496,polyarnyy,69.1989,33.4478,9.47,77,100,2.41,RU,1720092296
497,markaz-e woluswali-ye achin,34.1258,70.7078,37.37,38,13,4.24,AF,1720092297
498,sao gabriel da cachoeira,-0.1303,-67.0892,21.67,100,82,0.44,BR,1720092299
499,neelankarai,12.9455,80.2575,35.03,63,75,3.09,IN,1720092300
500,zemio,5.0314,25.1361,34.66,40,13,1.13,CF,1720092302
501,zaltan,32.947,11.8665,27.4,52,0,5.52,LY,1720092303
502,jianshui,23.6363,102.8264,24.48,77,89,2.37,CN,1720092306
503,yei,4.095,30.6779,34.22,30,35,2.13,SS,1720092307
504,zambezi,-13.5432,23.1047,29.47,14,1,3.09,ZM,1720092309
505,papao,-17.75,-149.55,23.82,75,13,10.64,PF,1720092310
506,panshi,42.9422,126.0561,20.73,80,98,1.87,CN,1720092312
507,tadine,-21.55,167.8833,21.96,84,10,6.91,NC,1720092313
508,tarnogskiy gorodok,60.4997,43.5761,26.33,39,29,3.38,RU,1720092315
509,hede,33.7681,120.2517,26.36,85,98,3.11,CN,1720092316
510,altai,46.3722,96.2583,19.43,20,0,5.58,MN,1720092318
511,ulsteinvik,62.3432,5.8487,18.5,68,40,3.08,NO,1720092320
512,nanzhou,29.3596,112.4024,29.17,81,88,5.92,CN,1720092321
513,meadow lakes,61.6247,-149.6011,12.43,80,100,0.0,US,1720092322
514,dera ismail khan,31.8327,70.9024,48.08,17,0,5.2,PK,1720092324
515,pacific grove,36.6177,-121.9166,15.69,88,0,0.0,US,1720092326
516,massaguet,12.4755,15.4365,35.68,34,100,4.27,TD,1720092327
517,maloye ganyushkino,46.6,49.2667,35.68,21,37,5.76,KZ,1720092331
518,sept-iles,50.2001,-66.3821,16.7,96,100,3.09,CA,1720092333
519,alcacer do sal,38.3733,-8.5144,34.95,20,13,1.98,PT,1720092288
520,nantucket,41.2835,-70.0995,22.03,69,93,5.38,US,1720092236
521,nova sintra,14.8667,-24.7167,22.2,82,37,1.53,CV,1720092337
522,yaren,-0.5472,166.916,26.72,77,100,3.28,NR,1720092338
523,qandala,11.472,49.8728,35.72,48,54,3.84,SO,1720092340
524,primero de enero,21.9469,-78.4283,26.73,86,100,4.59,CU,1720092342
525,cascais,38.6979,-9.4215,28.96,70,0,6.26,PT,1720092343
526,kafir qala,34.6667,61.0667,38.5,8,9,12.16,AF,1720092345
527,matiri,-10.75,34.9,24.37,42,47,0.62,TZ,1720092346
528,ta`u,-14.2336,-169.5144,27.25,77,23,10.69,AS,1720092349
529,saran,47.9501,1.876,20.46,52,75,5.66,FR,1720092350
530,usol'ye,59.4268,56.6808,29.05,60,41,2.17,RU,1720092351
531,kohat,33.582,71.4493,36.04,34,62,4.03,PK,1720092353
532,mawu,29.5923,107.3139,27.05,87,97,1.18,CN,1720092354
533,pyt-yakh,60.7499,72.8582,28.33,42,90,1.83,RU,1720092356
534,corner brook,48.9667,-57.9484,16.09,56,100,1.43,CA,1720092360
535,dolores,-36.3132,-57.6792,1.46,68,71,3.7,AR,1720092361
536,lycksele,64.5954,18.6735,18.93,55,40,7.2,SE,1720092363
537,ezine,39.7856,26.3408,27.15,51,93,4.58,TR,1720092364
538,ebon,4.582,168.6964,26.42,78,100,2.78,MH,1720092366
539,laguna,38.421,-121.4238,24.74,54,0,2.06,US,1720092084
540,niafunke,15.9322,-3.9906,32.67,45,24,5.41,ML,1720092370
541,gerash,27.6652,54.1371,43.08,12,0,4.31,IR,1720092371
542,port douglas,-16.4833,145.4667,22.42,86,86,6.65,AU,1720092373
543,tanga,-5.0667,39.1,28.43,59,77,5.65,TZ,1720092374
544,shimoda,34.6667,138.95,26.72,80,9,5.65,JP,1720092317
545,alaghsas,17.0187,8.0168,35.94,36,0,3.6,NE,1720092377
546,as sulaymaniyah,35.5611,45.4375,37.24,12,0,1.54,IQ,1720092378
547,yatou,37.15,122.3833,21.1,90,93,8.41,CN,1720092380
548,cill airne,52.05,-9.5167,15.03,72,75,7.72,IE,1720092382
549,antsiranana,-12.2787,49.2917,29.42,48,20,8.23,MG,1720092200
550,uliastay,47.7417,96.8444,19.52,43,82,5.41,MN,1720092385
551,baihar,22.1,80.55,23.61,96,100,2.34,IN,1720092386
552,beau vallon,-20.4189,57.6953,24.13,57,40,5.14,MU,1720092373
553,dongcun,36.7767,121.1597,21.23,89,91,3.1,CN,1720092390
554,surgut,61.25,73.4167,27.1,41,0,4.0,RU,1720092392
555,wynyard,-41.0,145.7167,4.76,81,0,2.23,AU,1720092393
556,yinchuan,38.4681,106.2731,31.49,19,100,4.74,CN,1720092274
557,ola,59.5833,151.2833,10.38,91,43,1.8,RU,1720092398
558,ulladulla,-35.35,150.4667,12.96,78,92,4.41,AU,1720092400
559,mugia,43.1041,-9.2179,25.65,77,53,9.01,ES,1720092402
560,mel'nikovo,56.5558,84.085,25.14,74,40,1.71,RU,1720092403
561,xining,36.6167,101.7667,13.19,90,100,1.07,CN,1720092404
562,lakhimpur,27.95,80.7667,35.47,51,100,5.27,IN,1720092323
563,guatrache,-37.6678,-63.5302,2.71,49,0,4.55,AR,1720092179
564,dunedin,-45.8742,170.5036,6.56,76,100,3.85,NZ,1720092380
565,bo'ness,56.0167,-3.6167,15.58,76,40,7.2,GB,1720092411
566,masaka,-0.3338,31.7341,29.94,32,6,6.87,UG,1720092413
567,santa helena de goias,-17.8136,-50.5969,18.82,53,0,1.05,BR,1720092414
568,katsuura,35.1333,140.3,24.68,92,4,2.29,JP,1720092334
569,veraval,20.9,70.3667,30.12,78,100,8.65,IN,1720092417
570,stiens,53.2623,5.7577,18.32,63,21,8.81,NL,1720092418
571,tazacorte,28.629,-17.9293,23.54,80,20,4.12,ES,1720092170
572,tvoroyri,61.5556,-6.8111,9.63,88,100,6.46,FO,1720092424
573,birur,13.6167,75.9667,24.01,74,100,4.65,IN,1720092425
574,kathu,7.9178,98.3332,25.9,75,98,6.36,TH,1720092427
575,happy valley-goose bay,53.3168,-60.3315,18.17,72,100,6.17,CA,1720092428
576,sidi ifni,29.3797,-10.173,23.86,74,86,3.1,MA,1720092430
577,pitimbu,-7.4706,-34.8086,24.33,70,59,5.87,BR,1720092431
578,nakhodka,42.8333,132.8947,17.72,93,64,3.58,RU,1720092311
